[
  {
    "name": "Sakura Sushi",
    "address": "123 Cherry Blossom Lane, Tokyo",
    "cuisine_type": "Japanese",
    "price_range": 3.5,
    "rating": 4.7,
    "longitude": 139.6917,
    "latitude": 35.6895,
    "open_hours": "11:00-22:00",
    "contact_info": "+81 3-1234-5678",
    "total_upvotes": 120,
    "total_downvotes": 5,
    "total_favorites": 80,
    "total_comments": 45,
    "average_ratings": 4.6
  },
  {
    "name": "Bella Pasta",
    "address": "456 Roma Avenue, Rome",
    "cuisine_type": "Italian",
    "price_range": 2.75,
    "rating": 4.3,
    "longitude": 12.4964,
    "latitude": 41.9028,
    "open_hours": "12:00-23:00",
    "contact_info": "+39 06 1234 5678",
    "total_upvotes": 95,
    "total_downvotes": 8,
    "total_favorites": 60,
    "total_comments": 30,
    "average_ratings": 4.2
  },
  {
    "name": "Taco Fiesta",
    "address": "789 Avenida Central, Mexico City",
    "cuisine_type": "Mexican",
    "price_range": 1.5,
    "rating": 4.0,
    "longitude": -99.1332,
    "latitude": 19.4326,
    "open_hours": "10:00-21:00",
    "contact_info": "+52 55 1234 5678",
    "total_upvotes": 110,
    "total_downvotes": 12,
    "total_favorites": 70,
    "total_comments": 38,
    "average_ratings": 3.9
  },
  {
    "name": "Le Gourmet",
    "address": "321 Rue de Paris, Paris",
    "cuisine_type": "French",
    "price_range": 4.25,
    "rating": 4.8,
    "longitude": 2.3522,
    "latitude": 48.8566,
    "open_hours": "17:00-23:30",
    "contact_info": "+33 1 23 45 67 89",
    "total_upvotes": 150,
    "total_downvotes": 3,
    "total_favorites": 100,
    "total_comments": 55,
    "average_ratings": 4.7
  },
  {
    "name": "Spicy Dragon",
    "address": "654 Dragon Road, Beijing",
    "cuisine_type": "Chinese",
    "price_range": 2.0,
    "rating": 4.1,
    "longitude": 116.4074,
    "latitude": 39.9042,
    "open_hours": "09:00-20:00",
    "contact_info": "+86 10 1234 5678",
    "total_upvotes": 85,
    "total_downvotes": 10,
    "total_favorites": 50,
    "total_comments": 22,
    "average_ratings": 4.0
  }
]
